[[{"name":"United States of America","lon":"-102.39256450","lat":"37.66895362"},{"name":"Bolivia","lon":"-65.19265691","lat":"-16.74518128"},{"name":"Sudan","lon":"30.37145459","lat":"15.96646839"},{"name":"China","lon":"103.55819197","lat":"36.71457440"},{"name":"Russia","lon":"102.41837137","lat":"57.96812298"},{"name":"Australia","lon":"133.55540944","lat":"-26.29594646"},{"name":"Angola","lon":"16.70933622","lat":"-12.16469683"}],[{"name":"South Africa","lon":"24.50856092","lat":"-27.17706863"},{"name":"Uzbekistan","lon":"62.62970960","lat":"41.30829147"},{"name":"India","lon":"78.50146222","lat":"20.46549519"},{"name":"China","lon":"103.55819197","lat":"36.71457440"},{"name":"Algeria","lon":"3.19771194","lat":"27.89861690"},{"name":"Brazil","lon":"-53.33152600","lat":"-11.80965046"}],[{"name":"New Zealand","lon":"171.76586181","lat":"-40.95025298"},{"name":"Australia","lon":"133.55540944","lat":"-26.29594646"},{"name":"China","lon":"103.55819197","lat":"36.71457440"},{"name":"Mongolia","lon":"104.30808978","lat":"46.80556270"},{"name":"Canada","lon":"-106.69833150","lat":"60.36196817"},{"name":"Peru","lon":"-76.15772412","lat":"-8.50205247"}]]